Date/Time,a_x,a_y,a_z,w_x,w_y,w_z,Latitude,Longitude,Elevation,Pitch,Roll,Yaw,Pitch_accel_only,Roll_accel_only,Yaw_accel_only,Pitch_gyro_only,Roll_gyro_only,Yaw_gyro_only
13:03:20,0.018787999,0.034403998,0.018056,0.001713056,-0.001674265,-0.000122864,-22.20609455,-64.12718537,424581.4481,334.3064351,64.06645041,345.2191291,334.2608061,64.07120423,345.1857124,334.2606217,64.07088321,345.1866874
13:03:30,0.01952,0.035379998,0.015859999,0.000334509,0.000338629,0.001040339,-22.68899282,-63.69924055,424704.0048,334.270604,64.46071625,344.3514065,334.2656794,64.44790965,344.3654272,334.2647556,64.45001335,344.3664056
13:03:40,0.017568,0.034159999,0.018787999,-0.002103195,-0.000577085,0.000421526,-23.16606906,-63.27197189,424826.3035,334.2970539,64.23432963,344.0238751,334.3138783,64.31861417,344.0229632,334.3153827,64.31970017,344.0222068
13:03:50,0.020252001,0.035868,0.01708,-0.002400614,2.78E-05,0.001936791,-23.64690398,-62.83665767,424950.7564,334.545502,64.0248409,344.0682218,334.5112571,64.10055355,343.9689996,334.550582,64.06365687,344.0607615
13:04:00,0.01708,0.034892,0.017324001,0.000340097,-0.001202263,-0.000199664,-24.12122416,-62.40246576,425074.6589,334.4033231,63.92423905,343.312948,334.4026947,63.91583108,343.308814,334.4015336,63.91490901,343.309789
13:04:10,0.017811999,0.035379998,0.014152,0.002466384,0.001548424,0.000107005,-24.59502149,-61.96383917,425199.5151,333.9918059,64.07671619,342.5842778,334.0212662,64.07998102,342.5703169,334.0202349,64.07868328,342.5708974
13:04:20,0.018544,0.034648001,0.017811999,-0.000605997,0.000931621,-0.00079711,-25.06681757,-61.52200299,425324.8907,334.425779,64.12193887,342.1722295,334.4240186,64.15930684,342.1738517,334.4220856,64.16088461,342.1744579
13:04:30,0.018300001,0.033916,0.016592,0.000612833,-0.000594765,0.001336468,-25.54247149,-61.07124781,425452.3119,334.0906234,63.79180851,341.4128116,334.1020895,63.7718302,341.410812,334.1030082,63.76851073,341.4123659
13:04:40,0.01952,0.033427998,0.016104,0.001528151,0.001827523,0.000114378,-26.01033979,-60.62247747,425578.6101,334.403376,64.00788837,341.1753361,334.4175692,64.01870056,341.1590273,334.4187969,64.01959532,341.1611123
13:04:50,0.017568,0.033671997,0.019276001,7.04E-07,-0.001536265,-0.000497678,-26.4790869,-60.16729796,425706.0658,334.4048889,63.85677044,341.1518232,334.4067074,63.84379991,341.1468764,334.4070694,63.84340376,341.1453482
13:05:00,0.019276001,0.033183999,0.017324001,-0.000303339,0.000592932,0.001334717,-26.94475406,-59.70938469,425833.5588,334.1213831,63.78510126,340.3527167,334.1244721,63.76230892,340.3603118,334.1254676,63.76341541,340.3597398
13:05:10,0.019032,0.034892,0.017568,-0.001213297,0.002729647,0.000724411,-27.40665348,-59.24932696,425960.8444,334.3192981,63.84045312,339.5417598,334.3163509,63.84797998,339.5260777,334.3160059,63.84561674,339.5277613
13:05:20,0.01708,0.033916,0.013908,0.003066085,-0.00152418,-0.00019069,-27.86998047,-58.78177292,426089.3103,334.1511781,63.94050856,339.5492884,334.1475871,63.95817826,339.5416795,334.1470151,63.9561975,339.5379759
13:05:30,0.018056,0.034892,0.018056,0.00032324,0.00153894,-0.000496864,-28.33373187,-58.30746621,426218.6446,334.3245283,63.59510589,339.8963764,334.3009283,63.5828457,339.87056,334.303225,63.58290717,339.8679781
13:05:40,0.019763999,0.034648001,0.016592,0.000660043,0.000639535,-0.000200473,-28.7911323,-57.83321966,426346.9052,334.4855295,63.9001558,338.9159727,334.4126582,63.93104874,338.8799503,334.4130612,63.93091214,338.8797591
13:05:50,0.017811999,0.034892,0.01464,-0.001154788,0.000358216,-0.000206685,-29.24720005,-57.3537471,426475.4435,334.434269,63.78678832,338.0341526,334.415585,63.75769854,338.0322589,334.4179773,63.756353,338.0326278
13:06:00,0.01952,0.034403998,0.016592,0.002834488,-0.000244379,9.42E-05,-29.70180492,-56.86899286,426604.1783,333.8480014,63.80905474,337.8581164,333.8551355,63.79490941,337.866439,333.852359,63.78956138,337.8691301
13:06:10,0.01952,0.034648001,0.014884,-0.000203941,-0.000532761,-0.000216875,-30.15242677,-56.38150584,426732.3467,334.0961797,63.39083542,337.5689074,334.0568959,63.43704848,337.4650527,334.0560677,63.43817546,337.4667107
13:06:20,0.019763999,0.033183999,0.018300001,-0.000797562,0.002209887,-0.000221899,-30.60670413,-55.88275494,426862.0814,334.2885742,63.50353354,336.9714315,334.293217,63.50579434,336.9900131,334.2920098,63.50772045,336.9918692
13:06:30,0.019276001,0.036111999,0.016104,-0.001999408,-0.00233829,7.61E-05,-31.05189586,-55.38657908,426989.6955,334.3960728,63.61465389,336.394424,334.3823305,63.65247265,336.3779786,334.3836641,63.65060801,336.3747633
13:06:40,0.019276001,0.035135999,0.018056,0.002607856,-0.002292261,-0.000242429,-31.49841703,-54.88127149,427118.1229,333.8793383,63.68968352,336.0254589,333.9171878,63.65288246,336.0254623,333.9176813,63.65029382,336.0276582
13:06:50,0.019032,0.034648001,0.019276001,-0.002246257,-0.001340508,0.000656459,-31.94317977,-54.37003378,427246.4356,334.2542081,63.52536283,335.5859345,334.2360091,63.52457053,335.5884036,334.2331558,63.52112128,335.5893684
13:07:00,0.018056,0.034403998,0.016348001,-0.001296442,0.000208877,0.000335574,-32.38078134,-53.85900294,427373.0242,334.205765,63.79583149,335.6166686,334.2273313,63.80488832,335.6229507,334.2257928,63.80717643,335.624105
13:07:10,0.018787999,0.034159999,0.018056,-0.003704477,-0.000975326,0.001237515,-32.82206385,-53.33528611,427500.9812,334.4380034,63.18305424,335.3811261,334.449461,63.1467791,335.3712036,334.4502004,63.14507156,335.3760428
13:07:20,0.018300001,0.034648001,0.01952,-0.002156153,0.000270858,0.000311371,-33.25872644,-52.80842209,427627.8588,334.221389,63.48619852,335.010795,334.2659936,63.43783395,335.0330392,334.2663488,63.43053931,335.0359711
13:07:30,0.018056,0.034648001,0.017811999,-0.000305302,-0.000317588,0.000915037,-33.68923554,-52.28023124,427753.1626,334.0418831,62.77791474,334.84017,334.0410242,62.82577387,334.8381773,334.0400714,62.82407999,334.8395997
13:07:40,0.018544,0.035623997,0.016592,-0.000587169,0.079093069,0.000904759,-34.12104427,-51.74135324,427879.0183,334.0484691,63.02336442,334.7334893,334.0573791,62.99357796,334.7354001,334.055786,62.99358479,334.7362743
13:07:50,0.018787999,0.032451998,0.018056,5.22E-05,-0.000926919,-2.00E-05,-34.54874308,-51.19824974,428003.8076,334.2413298,63.38110923,334.4633109,334.2514982,63.40585501,334.4599266,334.2486517,63.40337565,334.4598992
13:08:00,0.018787999,0.033671997,0.016348001,-0.001750119,0.000920802,-0.001255797,-34.97055291,-50.65311822,428126.9673,334.3558823,63.31169402,333.904511,334.2953463,63.33624855,333.901866,334.2957066,63.33717746,333.9007748
13:08:10,0.018300001,0.03294,0.020252001,0.001021713,1.36E-05,-4.08E-05,-35.39346607,-50.09667639,428250.4973,334.1484956,62.89926671,333.9242553,334.1471073,62.93656637,333.9110082,334.1495474,62.93489981,333.9118568
13:08:20,0.019032,0.034403998,0.016835999,0.000740021,-0.000595368,-4.96E-05,-35.8111573,-49.53696871,428372.5092,334.0278693,63.41853867,334.0258356,334.0238736,63.4263729,334.0331542,334.0239368,63.42611335,334.0349112
13:08:30,0.018300001,0.033671997,0.019032,-0.001374021,0.000338048,-0.001283102,-36.22714823,-48.96908631,428493.9912,334.2792015,63.15726344,333.3694937,334.2741283,63.14399922,333.3874878,334.2740378,63.14223703,333.3881247
13:08:40,0.018544,0.035379998,0.014396,0.000178814,-0.00208652,-0.00067105,-36.64321061,-48.39020569,428615.4196,334.0793518,63.72806235,332.9912361,334.0441354,63.74069137,332.98026,334.0423442,63.73887454,332.9781546
13:08:50,0.017568,0.031964,0.014884,-0.001020111,5.23E-05,0.001769332,-37.0500449,-47.81314638,428734.042,334.204136,63.28149775,332.3011565,334.1939624,63.30344315,332.3084409,334.1921063,63.30472723,332.3068512
13:09:00,0.017324001,0.034159999,0.015372,-0.000392586,-0.001453117,-0.00097716,-37.45475756,-47.22779267,428851.8944,333.8652579,63.4195632,332.1749978,333.8617881,63.46145958,332.1740142,333.8643938,63.46258656,332.1721598
13:09:10,0.019276001,0.035135999,0.016104,-0.000379596,-0.000840455,0.002384232,-37.85955701,-46.63051329,428969.5797,333.8843534,63.35915701,332.0920656,333.8706862,63.2966881,332.104249,333.8717602,63.29349157,332.1055621
13:09:20,0.017811999,0.034159999,0.017811999,-0.000358336,9.07E-05,0.001768721,-38.25853496,-46.02973204,429085.3424,334.0481071,63.7609702,331.2511157,334.065157,63.78434311,331.2438654,334.0646908,63.78025866,331.2480557
13:09:30,0.01952,0.034648001,0.017568,-0.002167817,-0.002621859,0.001457492,-38.65467262,-45.42078372,429200.013,334.0793604,63.41939927,331.486472,334.0179058,63.49563102,331.4713739,334.0174072,63.4973249,331.4682474
13:09:40,0.018300001,0.033671997,0.01708,-0.000620801,-0.000449762,-0.000984898,-39.04576549,-44.80683764,429312.9191,333.9491958,63.31413923,331.1099527,333.9183267,63.32567542,331.1068245,333.9200872,63.32234912,331.1078593
13:09:50,0.018544,0.036355998,0.014884,-0.000900134,-0.005600438,0.00176193,-39.43337071,-44.18524994,429424.4777,334.1622225,63.25031111,331.203417,334.1658733,63.28902462,331.1997458,334.1636295,63.28795911,331.1972596
13:10:00,0.018300001,0.033183999,0.017811999,-0.000868995,0.000248507,-0.000382023,-39.81771271,-43.55535812,429534.7192,334.214926,63.27042602,330.8500367,334.2111181,63.21990994,330.8601727,334.2100287,63.22218439,330.8575602
13:10:10,0.017811999,0.034159999,0.01952,-0.00053576,-0.003374673,0.000834217,-40.19611797,-42.92135898,429642.8471,334.3071489,63.40369667,330.0570552,334.3507136,63.36215546,330.0742399,334.3515742,63.36205984,330.0737276
13:10:20,0.017568,0.034892,0.017324001,-0.000205576,-0.002114631,-0.002529781,-40.57449104,-42.27297665,429750.514,334.0471492,62.92627328,329.9222067,334.0712325,62.88914437,329.9379674,334.0717225,62.88774418,329.9355768
13:10:30,0.016104,0.033916,0.017568,-0.001403477,-0.002686113,0.000528641,-40.9445298,-41.62417998,429855.3278,334.0333932,63.2908073,330.1068916,334.0483257,63.34635723,330.0988798,334.048657,63.34418523,330.099334
13:10:40,0.018787999,0.034403998,0.017324001,0.001366731,-0.001427397,0.002058201,-41.31445239,-40.96028219,429959.5872,334.1026377,63.20915239,329.6097939,334.1144573,63.13602839,329.6197386,334.1139331,63.13901318,329.6165831
13:10:50,0.01952,0.032696001,0.018787999,-0.004111361,-0.002916463,-7.86E-05,-41.67901649,-40.29021226,430061.7794,334.12912,63.58135672,329.5117294,334.1337116,63.60104132,329.5047729,334.1327451,63.59838438,329.5044826
13:11:00,0.018056,0.035623997,0.018056,-0.001046985,-0.000747867,-0.001289101,-42.03766416,-39.61486984,430161.7266,333.9094509,62.94045958,329.5338046,333.8515889,63.02903347,329.510039,333.850269,63.02955257,329.5060672
13:11:10,0.019032,0.03294,0.017324001,-0.001644384,-0.001945913,0.000241887,-42.39004888,-38.9348397,430259.3143,333.954385,63.06336883,328.7703739,333.968421,63.10777872,328.7692742,333.969951,63.1063717,328.7682155
13:11:20,0.020008,0.035135999,0.015128,0.000205748,-0.00162217,-0.000975836,-42.74064803,-38.24110674,430355.7544,334.2659048,63.33952704,329.2029024,334.295389,63.34339293,329.2220338,334.2939632,63.33859131,329.2204731
13:11:30,0.018056,0.033916,0.018056,-0.002522867,0.000846058,0.000552027,-43.08702332,-37.53794167,430450.3423,333.9229644,63.32273161,328.8742781,333.9111892,63.29948847,328.8791515,333.9075504,63.30280794,328.8762316
13:11:40,0.01708,0.034648001,0.018300001,-0.000363812,-0.00126633,-5.43E-05,-43.42683395,-36.82988135,430542.419,333.8133211,63.14395824,329.0510981,333.8058233,63.16226997,329.0511151,333.8063389,63.16183967,329.0503092
13:11:50,0.018787999,0.034892,0.018300001,0.000261925,-0.001552202,-0.000661697,-43.75889127,-36.11946776,430631.6552,334.0477673,63.15683997,329.40343,334.066979,63.19120948,329.3974706,334.0701072,63.19186518,329.3978121
13:12:00,0.018787999,0.034648001,0.018544,-0.00308264,0.00060226,0.001784166,-44.08904323,-35.3938507,430719.6002,333.8196817,62.7255067,329.0104175,333.845896,62.75818915,328.9972762,333.843823,62.75972594,328.9961799
13:12:10,0.017811999,0.034648001,0.015372,-0.000613838,0.000629313,-0.000358725,-44.4140151,-34.65963355,430805.3503,333.960568,62.92868433,329.1236756,333.988425,62.93814414,329.1306868,333.9878495,62.93653222,329.131042
13:12:20,0.018056,0.034159999,0.018056,-0.000599481,-0.001198716,-0.000666447,-44.73389834,-33.91626537,430888.9094,334.0563563,62.750553,329.130055,334.0807964,62.71688017,329.1530557,334.0800639,62.71614934,329.153947
13:12:30,0.019763999,0.033671997,0.018544,-0.002112869,0.001252808,-0.001582937,-45.0478562,-33.16539339,430970.0417,333.8643716,63.00514147,327.8414033,333.8897338,63.00760034,327.8646635,333.8905927,63.00650751,327.8652987
13:12:40,0.017811999,0.033916,0.016348001,-0.001174711,5.35E-05,0.000254108,-45.35566378,-32.40734458,431048.6765,333.9463954,62.96067011,328.4288781,333.9505584,62.95435901,328.4310467,333.9530446,62.9559163,328.4292606
13:12:50,0.019032,0.035868,0.01708,-0.001157232,-0.001767114,0.000248529,-45.65928572,-31.63685317,431125.2951,334.0034702,62.62227522,327.8151002,333.98599,62.5934245,327.8233818,333.98606,62.58998891,327.8216538
13:13:00,0.016835999,0.033671997,0.017324001,-0.00235568,0.000684455,-0.000359546,-45.95657561,-30.85892372,431199.3356,334.009368,62.80535161,327.8369739,334.0169085,62.82934606,327.8278419,334.0168198,62.82923678,327.8264144
13:13:14,0.019763999,0.033916,0.017324001,0.00102292,0.000378877,0.00147252,-46.36174866,-29.75799539,431298.5462,333.79587,62.92216833,327.611885,333.7855342,62.96112773,327.5940036,333.7844994,62.96082037,327.5933479
13:13:24,0.018787999,0.033427998,0.018056,0.001655638,-0.001451373,-0.000362065,-46.64500344,-28.95796214,431366.6365,334.1356668,63.21420673,327.7797745,334.1719812,63.1941533,327.7809288,334.1705537,63.19362054,327.7786577
13:13:34,0.018787999,0.032696001,0.015616,-0.001379851,-0.000219442,-0.001277093,-46.92191924,-28.14942885,431432.1026,333.9428625,63.06095095,327.2650343,333.9383528,63.07647597,327.2623091,333.9386124,63.07433129,327.2618378
13:13:44,0.018787999,0.033183999,0.018300001,0.000475809,-0.000204921,0.000552624,-47.19068017,-27.33764137,431494.515,333.7619478,63.08720619,327.3596939,333.7498618,63.09547755,327.3634813,333.7489961,63.09518385,327.360517
13:13:54,0.017324001,0.035135999,0.01464,-0.001334649,0.000720583,-0.000977684,-47.45405145,-26.51402197,431554.5091,333.8871315,63.44096218,326.7367704,333.884297,63.47862384,326.743225,333.8829071,63.47717584,326.7441914
13:14:04,0.018787999,0.03294,0.018056,-0.002850905,-0.000201903,0.000250556,-47.71201977,-25.67789468,431612.0553,333.9951646,63.21538152,326.8089245,334.0036255,63.226665,326.7995672,334.0030877,63.22820862,326.798225
13:14:14,0.019032,0.034648001,0.017324001,0.000218239,0.002860665,0.00116968,-47.9613796,-24.83942993,431666.4334,334.062886,63.14263318,326.8808567,333.9994181,63.07674234,326.8681389,334.0004922,63.0746728,326.8676915
13:14:24,0.018300001,0.033916,0.015859999,-0.003129106,0.001947328,0.001171332,-48.20477095,-23.98959133,431718.2167,333.7980556,63.08989729,326.5065111,333.7977227,63.09325091,326.5045235,333.7972872,63.09055299,326.5055139
13:14:34,0.020008,0.034403998,0.017324001,0.003293734,0.000113338,0.000869464,-48.44169804,-23.1294894,431767.279,333.9365326,63.39670939,326.5756326,333.9288316,63.40851195,326.5566925,333.9279675,63.41039025,326.5555382
13:14:44,0.017324001,0.034403998,0.018056,-0.00096643,0.000739411,0.00117513,-48.67002602,-22.26675005,431813.1781,334.1187825,62.91410871,326.3935432,334.1434361,62.86533433,326.3991064,334.1445221,62.86481523,326.3981775
13:14:54,0.019032,0.033427998,0.017568,-0.00186896,-0.002303377,-0.000351768,-48.89174889,-21.39370603,431856.3147,333.8398154,63.17483069,326.3642553,333.8744052,63.18974782,326.3726223,333.8743403,63.19084065,326.3680666
13:15:04,0.018787999,0.033671997,0.017811999,-0.00123857,0.000472851,-0.00096683,-49.10647569,-20.51133313,431896.5952,333.8721137,63.18481643,325.9855247,333.8497448,63.16615635,326.0017669,333.8491403,63.17020665,326.001323
13:15:14,0.016592,0.032696001,0.017324001,0.000928573,-0.000714876,0.000248721,-49.3138968,-19.62043194,431933.9478,333.961415,62.42963656,325.9301968,333.9564597,62.45839849,325.925624,333.9568046,62.45814577,325.927072
13:15:24,0.01952,0.034648001,0.016592,-0.000573687,-0.001285471,-0.001589241,-49.51394349,-18.72084599,431968.3475,333.6231772,63.46361792,325.4350456,333.5799643,63.48011966,325.4323238,333.5803877,63.47350803,325.4309031
13:15:34,0.019032,0.034403998,0.017811999,-0.001461476,-0.001558021,0.000848103,-49.70438376,-17.82283715,431999.4249,334.080933,62.67228586,325.5850673,334.0997963,62.67421198,325.5848966,334.0982288,62.67294839,325.5830695
13:15:44,0.016835999,0.033916,0.016835999,-0.001738284,-0.000921987,-0.000385405,-49.89011034,-16.90257339,432027.9533,334.0147143,62.64204178,325.3016418,334.0490565,62.67567364,325.3082432,334.0473661,62.67411635,325.3087555
13:15:54,0.019276001,0.03294,0.016104,-0.001091,-0.002719708,0.00051556,-50.06523178,-15.98880612,432053.0151,333.9004607,63.07271936,325.6911436,333.8857023,63.03448396,325.6982265,333.881442,63.03323404,325.6948319
13:16:04,0.017568,0.033671997,0.017324001,0.000475459,-0.000540607,0.000191005,-50.23385423,-15.06023027,432075.2075,333.9192078,62.90352192,325.47825,333.9271257,62.88246444,325.4884167,333.9255872,62.88422663,325.4888846
13:16:14,0.018787999,0.034159999,0.020252001,0.000808664,0.000993937,-0.000125542,-50.39339888,-14.13051122,432094.1741,334.0767461,62.92856139,325.9595256,334.0793279,62.8746712,325.9539624,334.0795158,62.87760818,325.9518348
13:16:24,0.019032,0.032696001,0.014396,-8.88E-05,8.68E-05,-0.000742169,-50.54562118,-13.18910989,432110.1153,333.7638722,63.07073178,325.4477976,333.8121753,63.04936012,325.4549181,333.8100597,63.0454191,325.4508883
13:16:34,0.018544,0.032451998,0.01952,0.00084893,-0.000511274,-0.000139683,-50.68921452,-12.24346636,432122.8722,333.757527,62.79779059,325.6238867,333.7179546,62.76169304,325.6129413,333.7172545,62.75674115,325.6151441
13:16:44,0.018787999,0.035135999,0.016835999,0.000869833,0.001023553,0.000162859,-50.82421137,-11.29335812,432132.4502,333.906519,63.18683816,324.8132252,333.8827995,63.18912628,324.8157763,333.8810732,63.18680401,324.8160051
13:16:54,0.01952,0.034648001,0.018056,-0.00094559,-0.003552526,-0.001681035,-50.95117941,-10.33425488,432138.8706,333.8549016,63.22431541,325.0463123,333.8468744,63.27550085,325.0467699,333.844074,63.27400504,325.0442769
13:17:04,0.01952,0.032696001,0.018787999,-0.00304763,-0.001380838,-0.00016957,-51.06945014,-9.370581401,432142.0764,334.085038,62.89373425,325.0053448,334.0491044,62.88290841,324.991056,334.0463364,62.87962308,324.9907418
13:17:14,0.019276001,0.033671997,0.016348001,0.00155481,0.001089856,-0.001092544,-51.17896276,-8.402674846,432142.0604,333.8962157,63.3325261,324.8840133,333.8788858,63.35457395,324.8797239,333.8799735,63.35600146,324.879823
13:17:24,0.01952,0.033183999,0.020252001,-0.002087254,0.000191689,-0.002013603,-51.28001633,-7.427297775,432138.799,333.9752222,62.81645749,325.3368992,333.9313929,62.75943908,325.3436133,333.9301686,62.75835991,325.3403417
13:17:34,0.01952,0.03294,0.016348001,-0.000539646,-0.000697084,0.00041955,-51.37178053,-6.452400341,432132.3154,334.2384645,63.16645005,325.0304389,334.2072591,63.11632329,325.0234584,334.206308,63.11322921,325.0249064
13:17:44,0.019032,0.034403998,0.017324001,-0.002656426,-0.000355937,-0.000504885,-51.4547842,-5.472607332,432122.5801,333.9189841,63.21001299,324.8288698,333.9359332,63.23250481,324.8346789,333.935018,63.22943122,324.8361678
13:17:54,0.020252001,0.034403998,0.015616,0.000115421,-0.000942491,-0.001423987,-51.52826369,-4.497863347,432109.7165,333.9742608,63.44880324,325.1702187,334.0113607,63.4191329,325.1805596,334.012206,63.41765075,325.1809455
13:18:04,0.018544,0.033671997,0.018544,0.000443891,0.000917956,-0.000818327,-51.59346165,-3.511353345,432093.4905,333.9673589,63.09381099,324.8276916,333.9726984,63.15505729,324.825383,333.9733473,63.15147144,324.827152
13:18:14,0.017324001,0.031719998,0.016592,0.002000023,-0.000582688,0.000393027,-51.6502343,-2.510701757,432073.7528,333.8675443,63.24257934,324.5400177,333.8810834,63.26559707,324.5376237,333.8792597,63.26735243,324.5370909
13:18:24,0.018056,0.035135999,0.016835999,0.001411788,4.64E-05,7.99E-05,-51.69678027,-1.530026771,432051.2179,333.9073609,63.00035351,324.8307856,333.9160147,63.02451189,324.826527,333.9167063,63.025352,324.8262128
13:18:34,0.017811999,0.03294,0.015859999,-0.004991371,4.52E-05,0.000384971,-51.73496975,-0.531498808,432025.0359,333.9699066,63.17881269,324.5083666,333.933973,63.24518164,324.4827704,333.9343879,63.24327602,324.4794578
13:18:44,0.019276001,0.035379998,0.014884,-0.001610495,-0.001172796,0.001904663,-51.76381638,0.463232847,431995.7112,333.9632608,63.09532729,324.7873456,333.9095158,63.16586265,324.7694437,333.9106137,63.16292567,324.7699833
13:18:54,0.019032,0.035623997,0.018056,0.003908824,0.001580991,0.000370566,-51.78355434,1.460851299,431963.0521,334.0416748,62.44604268,325.0473231,334.0274697,62.50675623,325.0211157,334.0259159,62.50444762,325.0232023
13:19:04,0.017811999,0.034159999,0.016592,0.000258818,-0.001176149,-0.000242902,-51.7941293,2.462458567,431926.9861,334.0678703,62.74816926,324.4909462,334.0715962,62.81042644,324.4902392,334.0717054,62.80985953,324.489785
13:19:14,0.019276001,0.032696001,0.01708,-2.99E-05,-0.001472063,0.000360383,-51.79546615,3.460397245,431887.7801,333.8864844,62.47948328,324.9400687,333.8429078,62.46731871,324.9372341,333.8435088,62.46748947,324.9397886
13:19:24,0.018787999,0.034648001,0.016835999,0.002117407,-0.00148645,-0.000248762,-51.78768745,4.453059131,431845.5301,333.9186358,62.6519319,324.8974927,333.9482156,62.61246706,324.9119283,333.9447339,62.61268563,324.9081034
13:19:34,0.018787999,0.03294,0.018056,-0.001537703,-0.000564948,-0.001167301,-51.77068158,5.451989304,431799.7249,334.0237319,62.56865823,324.9018811,334.0128582,62.55821487,324.9025778,334.0126346,62.55529838,324.9033223
13:19:44,0.017811999,0.034403998,0.01464,0.002432007,0.001879953,0.000977458,-51.74464216,6.44477,431750.9143,333.8211826,63.08663929,325.1870995,333.841791,63.13243571,325.1961905,333.8446153,63.12760676,325.1984001
13:19:54,0.019032,0.033427998,0.016348001,0.002120897,-0.000563391,-0.000542898,-51.70951314,7.436421044,431698.8647,333.6642164,62.96088867,325.1187191,333.6652221,62.9625006,325.1238964,333.666875,62.96702901,325.1214136
13:20:04,0.016592,0.034159999,0.015128,-0.001842093,4.75E-05,0.000985835,-51.66528686,8.427054227,431643.554,333.9840519,62.81890953,324.865384,333.9705196,62.82575338,324.8600291,333.9699903,62.8239707,324.859954
13:20:14,0.017811999,0.033183999,0.01952,-0.002440125,-0.000573076,0.001291241,-51.61197552,9.416226353,431584.989,333.4483414,62.84208436,324.0979507,333.3811101,62.90909535,324.0712242,333.3800702,62.90713509,324.0691512
13:20:24,0.017811999,0.032696001,0.017324001,-0.000596359,-0.001488395,-0.001462372,-51.54903082,10.41187006,431522.6396,333.8521541,63.20864696,324.5669662,333.8553182,63.1741545,324.5829659,333.8549426,63.17556835,324.5814325
13:20:34,0.018056,0.032207999,0.015859999,-0.001201976,0.000648245,-0.000548763,-51.47811846,11.38930039,431458.0735,334.0508853,63.23572866,324.6876761,334.0220824,63.24740145,324.6769903,334.0235492,63.24857624,324.6772908
13:20:44,0.01952,0.03294,0.015616,0.001541026,-0.000272453,-0.000852117,-51.39730565,12.37596339,431389.4821,333.7139436,63.05637472,324.6251013,333.7007971,63.07323846,324.6184112,333.7013999,63.07398978,324.6208051
13:20:54,0.017568,0.034159999,0.015616,-0.001825802,0.001247928,6.98E-05,-51.30849907,13.34850822,431318.469,334.0474412,63.26237322,324.8696255,334.0371447,63.17796575,324.8636867,334.0390008,63.17446869,324.8648307
13:21:04,0.018056,0.032696001,0.018056,-0.000907145,0.000326164,0.000686074,-51.2096774,14.3290968,431243.3989,333.9304725,62.71705092,324.830287,333.9092323,62.75611277,324.827975,333.9095209,62.75318945,324.8314072
13:21:14,0.016835999,0.033183999,0.014884,0.000942335,0.000642523,-0.002988523,-51.10283399,15.29761833,431165.7806,333.8728923,63.05795249,324.7295964,333.8461982,63.07943344,324.7161443,333.8442345,63.07672185,324.7190984
13:21:24,0.017811999,0.034892,0.018300001,-0.000260208,0.003104471,0.000666391,-50.9881062,16.25495349,431085.6138,333.7903546,63.20888601,324.9141891,333.7842911,63.23131635,324.9099441,333.7847487,63.2305582,324.9093226
13:21:34,0.018544,0.034159999,0.018787999,0.000671815,-0.002689652,-0.000865843,-50.86325948,17.21936451,431001.3333,333.6462154,63.16407997,325.0690602,333.63499,63.15825382,325.0743536,333.6339859,63.15783718,325.071403
13:21:44,0.018544,0.033671997,0.016835999,0.001611393,-0.000832587,-0.000263132,-50.73110417,18.16912847,430914.8187,333.5841221,62.95557479,324.1457791,333.5795989,63.01522283,324.1369921,333.5788083,63.02039328,324.1343522
13:21:54,0.017324001,0.033427998,0.017811999,0.001027193,-0.001106754,-0.001802247,-50.58946421,19.12040452,430824.6073,333.6742294,62.75381783,324.3593626,333.6789781,62.72054798,324.3580648,333.6794665,62.72168179,324.35661
13:22:04,0.017811999,0.033671997,0.016592,-0.000166301,-0.000461429,0.001851909,-50.44015071,20.06108687,430731.8325,333.4768216,63.20711699,324.0932413,333.4687534,63.21605088,324.0971379,333.4665592,63.21628311,324.0985996
13:22:14,0.020252001,0.032207999,0.017811999,0.000477131,0.000483856,0.001536096,-50.2820405,20.99869719,430635.762,333.6120201,62.55754551,323.7794283,333.602591,62.57785167,323.7826351,333.6001133,62.57452536,323.7825326
13:22:24,0.01952,0.034403998,0.015128,-0.000108637,-0.002243847,0.001527967,-50.1168135,21.92383812,430537.3782,333.7860686,62.7615496,324.0099062,333.784093,62.70410088,324.0088168,333.7848597,62.70179911,324.0104799
13:22:34,0.01952,0.032207999,0.018787999,0.002044156,0.001748666,0.002133548,-49.94233286,22.84874558,430435.382,333.0447233,62.90170509,323.7621035,333.0589557,62.90766101,323.7625714,333.0591009,62.90696433,323.7628753
13:22:44,0.018300001,0.034648001,0.018544,0.000245254,-0.000662833,-1.83E-05,-49.76096604,23.7611174,430331.132,333.6730376,62.5144197,324.1481492,333.7127295,62.5640137,324.1627931,333.7118911,62.56352876,324.1588487
13:22:54,0.018544,0.033671997,0.019763999,0.00118925,-0.002477042,-0.0003352,-49.57189504,24.66585442,430224.1139,333.4202813,63.24697115,323.7020764,333.4115762,63.26561756,323.697466,333.4067882,63.26339092,323.6984905
13:23:08,0.018300001,0.033916,0.016835999,0.001820974,0.002115935,0.00056904,-49.2919957,25.93019195,430068.3419,333.5888606,62.89476561,323.6285631,333.6023605,62.9875469,323.6248611,333.6012642,62.98338049,323.6268214
13:23:18,0.019763999,0.033427998,0.018056,-0.00272724,-0.001229003,0.001163557,-49.08394107,26.81955225,429954.3207,333.415256,62.85258237,323.3181549,333.4243299,62.9262118,323.3079779,333.4245741,62.93001622,323.3062123
13:23:28,0.019032,0.034403998,0.01708,-0.001474123,-0.002134562,0.001758466,-48.86830956,27.70156975,429837.524,333.6567578,63.09507457,324.0718697,333.6425356,63.04611578,324.0697318,333.6412806,63.04539861,324.0667265
13:23:38,0.019032,0.03294,0.016348001,0.000690255,-0.000894599,-0.00069811,-48.64591648,28.57336062,429718.3659,333.9500973,62.86752682,324.1704122,333.9545643,62.90001803,324.1694765,333.9532136,62.89850856,324.1698214
13:23:48,0.019276001,0.033671997,0.015372,-0.001111291,-0.000271603,0.002343195,-48.41588278,29.43874258,429596.3516,333.8204791,62.95072535,323.9460747,333.8227314,62.9748086,323.945781,333.8190414,62.97103834,323.9468635
13:23:58,0.019276001,0.033183999,0.017568,-0.001082178,-0.000863001,0.001412315,-48.18002543,30.29139107,429472.4178,333.6267784,62.70780968,323.5335825,333.6053862,62.71705092,323.5270221,333.6032381,62.71472183,323.5240612
13:24:08,0.018544,0.034892,0.015859999,-0.001654748,-0.001450449,0.000175938,-47.93528052,31.14258143,429344.9391,333.462876,62.98226034,323.5865164,333.4708742,63.00404181,323.5885928,333.4701314,63.00385056,323.5886167
13:24:18,0.018544,0.03294,0.018787999,-0.003149208,-0.002344258,0.000161264,-47.6833934,31.98614304,429214.8205,333.8782335,62.85595648,323.6884946,333.889044,62.87381742,323.684195,333.8904032,62.8718435,323.6876237
13:24:28,0.018300001,0.033671997,0.017324001,-6.67E-05,0.000726983,-0.00015454,-47.42645488,32.81567585,429083.1159,333.6116888,62.95861422,323.171258,333.6199636,62.91656075,323.1739696,333.6204536,62.91313882,323.177634
13:24:38,0.018787999,0.035135999,0.017568,-0.001262899,-0.002917573,0.000142425,-47.16159681,33.64084869,428948.3368,333.7669663,62.90199878,323.215562,333.7573733,62.88880969,323.2174164,333.7568252,62.88794908,323.2192811
13:24:48,0.019763999,0.035623997,0.019032,-0.000631928,0.000456035,0.00013534,-46.89079103,34.45572367,428811.4765,333.5938961,63.01511355,323.174837,333.6179538,63.08737012,323.1798948,333.617112,63.08877031,323.1795635
13:24:58,0.017324001,0.033916,0.018787999,-0.001527622,0.001377277,-0.000481239,-46.6124002,35.26546777,428671.6978,333.5451047,63.01361774,323.0840672,333.5262858,62.97176917,323.0892138,333.5250769,62.96659188,323.0901905
13:25:08,0.018544,0.032207999,0.018300001,1.31E-05,0.000156894,-0.001401562,-46.33094899,36.05753185,428531.2521,333.6610318,62.84116229,322.9378943,333.7134586,62.83786331,322.9539453,333.7118091,62.83345784,322.9542253
13:25:18,0.019276001,0.033671997,0.015616,-0.000275478,-0.000138983,0.001645721,-46.04218224,36.84449008,428387.9977,333.8093972,63.09793642,322.6218922,333.8558339,62.99934947,322.6470444,333.8569182,63.00262796,322.6462248
13:25:28,0.019032,0.03294,0.01708,0.000355538,0.000777923,0.000721287,-45.74500029,37.62919285,428241.3966,333.585565,62.96312215,322.6199149,333.5766841,62.93263901,322.6230499,333.5755025,62.9336089,322.6229475
13:25:38,0.019276001,0.03294,0.01708,0.003129415,-0.001053765,0.000713835,-45.44535648,38.39636411,428094.3756,333.7083752,62.64593499,322.7487015,333.6716135,62.61908552,322.7264044,333.6691785,62.62048571,322.7267049
13:25:48,0.019032,0.033671997,0.016592,-0.003554657,-0.000725001,0.001922339,-45.13593285,39.1650054,427943.3415,333.3926549,63.07527385,322.2979056,333.4358712,63.06117634,322.310521,333.4350772,63.05898385,322.311706
13:25:58,0.018544,0.033427998,0.017324001,-0.002606943,-0.000400707,7.63E-05,-44.82524245,39.91432052,427792.4459,333.6427542,62.50474815,322.6997017,333.6151927,62.53241042,322.6913791,333.6154352,62.52968517,322.6921544
13:26:08,0.020252001,0.033183999,0.016104,-0.002886977,-0.000385754,-0.000549838,-44.50506686,40.66450323,427637.6943,333.5250359,62.73673553,322.5277278,333.5000272,62.68053673,322.5386903,333.5005582,62.68236039,322.5382634
13:26:18,0.019032,0.03294,0.017811999,-0.001353066,-0.000382386,-0.000245202,-44.18344297,41.39702746,427482.9724,333.5842963,62.84640787,322.4434262,333.5951836,62.83175712,322.4489006,333.5956276,62.83283629,322.4479819
13:26:28,0.018544,0.033183999,0.018300001,-0.000431873,0.000220671,0.000673549,-43.85330679,42.12837062,427324.8817,333.6382668,62.61026774,322.0299846,333.64446,62.61921529,322.0306813,333.6466406,62.62090235,322.0303534
13:26:38,0.018056,0.033916,0.016835999,0.002319768,-0.000694327,7.00E-05,-43.51739289,42.85243583,427164.7483,333.6246235,62.98205543,322.6107522,333.679364,62.96218641,322.6244672,333.6778563,62.96074524,322.6224728
13:26:48,0.01952,0.03294,0.015859999,0.000192784,-0.000392802,0.000377212,-43.18008074,43.56035795,427004.6563,333.3888368,62.71625862,322.0700129,333.3990274,62.63958292,322.0866957,333.4009962,62.63755435,322.0885637
13:26:58,0.01952,0.034648001,0.015859999,-0.001623534,-8.60E-05,-0.000538934,-42.83508149,44.26571881,426841.6257,333.3217865,62.98321656,322.0236257,333.3427023,62.90098792,322.0365962,333.3450946,62.90275693,322.0410222
13:27:08,0.018056,0.034892,0.016835999,-0.00190739,-0.00130441,0.00128437,-42.48733884,44.95865226,426678.0042,333.6008629,62.82276859,322.121936,333.5944767,62.78253878,322.1249686,333.592583,62.78051704,322.1236709
13:27:18,0.016835999,0.035379998,0.017324001,-0.000976019,-0.001913942,6.45E-05,-42.13412118,45.64499847,426512.5135,333.6692519,62.91055701,321.7484306,333.6630621,62.89260727,321.7456848,333.6613238,62.89227942,321.7438475
13:27:28,0.01952,0.03294,0.016104,-0.000964873,-0.000684984,0.002201095,-41.77588154,46.32408167,426345.3825,333.4376385,62.76565455,321.3989025,333.4252246,62.78589923,321.3930285,333.4256976,62.78609047,321.3953234
13:27:38,0.018300001,0.032696001,0.019032,-0.002483062,0.000231184,0.001285264,-41.41330689,46.99487063,426176.9468,333.4133367,63.20887918,321.3221653,333.4454556,63.22505307,321.3287769,333.4442194,63.22758024,321.3262327
13:27:48,0.018787999,0.034159999,0.017324001,-0.001559995,0.001452222,0.000681305,-41.04586247,47.65862011,426006.9751,333.5886232,62.83883319,321.2188416,333.6508138,62.72232383,321.2571316,333.6529756,62.7220233,321.2557553
13:27:58,0.018300001,0.033916,0.018787999,0.000270378,-0.000688352,-0.000228543,-40.67396197,48.31482458,425835.6785,333.632275,62.70947624,320.9579181,333.6366975,62.71390903,320.9618318,333.6357823,62.71288451,320.9611522
13:28:08,0.018300001,0.033183999,0.017811999,-0.000648696,-0.00160183,0.000386452,-40.29997562,48.95969702,425664.1625,333.4565462,62.71648402,320.7252785,333.4886395,62.73648964,320.7165734,333.4879223,62.73779421,320.7173964
13:28:18,0.020252001,0.033427998,0.016835999,-0.002167277,-0.002811342,-0.001443934,-39.9208844,49.59877872,425491.0603,333.4616449,63.20677548,320.8192892,333.4602652,63.21260847,320.8142792,333.4612727,63.21143367,320.8168098
13:28:28,0.01952,0.033183999,0.016348001,-0.003063094,-0.000953503,-0.00083572,-39.53679749,50.23203778,425316.4503,333.4497331,63.30657138,320.5015385,333.42169,63.37575437,320.4895277,333.4181246,63.37417659,320.4882572
13:28:38,0.018056,0.033427998,0.015616,0.001855161,-0.00060124,0.000982393,-39.15031056,50.85548433,425141.5351,333.5153199,62.72657904,320.8002774,333.5346596,62.69975688,320.812278,333.5338246,62.69699066,320.8127834
13:28:48,0.018787999,0.034648001,0.018787999,5.25E-05,-0.002096549,0.001889817,-38.7576571,51.47541077,424964.6385,333.5851842,62.81518025,320.2620175,333.5659795,62.74329251,320.2606002,333.564832,62.73646915,320.2645617
13:28:58,0.01952,0.033427998,0.021228001,-0.001754899,-0.001161419,-0.000865281,-38.36270869,52.08591269,424787.5347,333.4941447,62.50373045,320.233597,333.5333209,62.448966,320.2570212,333.5320198,62.45085113,320.2578647
13:29:08,0.019763999,0.032451998,0.020008,-0.002036013,-0.001448914,0.00034735,-37.96300323,52.69106447,424609.1472,333.3675112,62.61595729,320.0541953,333.4276442,62.60035714,320.0777629,333.4253066,62.59919601,320.074942
13:29:18,0.019276001,0.033916,0.01708,-0.001714665,-0.000831068,-0.001484742,-37.56232626,53.28544774,424431.1907,333.2980226,63.13560491,319.7656198,333.2939023,63.16497473,319.7686251,333.2919796,63.16502937,319.7698579
13:29:28,0.01952,0.033427998,0.017811999,0.002572089,0.000705004,-0.001182077,-37.15557194,53.87687796,424251.4291,333.4911752,62.60974182,319.4948916,333.4961561,62.69835669,319.4747528,333.4942112,62.69736632,319.4732911
13:29:38,0.017568,0.033427998,0.017324001,0.001058381,0.001331754,-0.001791595,-36.7446271,54.46270165,424070.7403,333.5028617,62.8060278,319.1895582,333.5396457,62.81763912,319.1934514,333.5381396,62.81693561,319.1945101
13:29:48,0.01708,0.034648001,0.015372,-0.001062077,0.001350932,-0.00026685,-36.33388162,55.03700713,423891.0791,333.5402023,63.09621521,319.1583067,333.5492933,63.12430095,319.15594,333.5483695,63.11800352,319.1561518
13:29:58,0.020496,0.033671997,0.016348001,-0.002881084,0.000453293,-0.00088047,-35.91859274,55.60674243,423710.3987,333.4962091,62.60522706,319.3983435,333.4992519,62.64199397,319.3888153,333.5008314,62.64252673,319.3881631
13:30:08,0.020496,0.03294,0.015859999,0.000185262,0.001994446,0.000950452,-35.49903553,56.17165845,423528.8637,333.3850102,62.52139332,319.4638962,333.3943624,62.49377204,319.4621169,333.394569,62.4926997,319.4617788
13:30:18,0.017568,0.033671997,0.018056,0.001716405,-0.000443414,3.91E-05,-35.08004554,56.72555583,423348.5943,333.8135499,62.67290058,319.086238,333.806117,62.66098873,319.0964149,333.8064738,62.66557179,319.0955509
13:30:28,0.019276001,0.034159999,0.019763999,-0.000722192,0.000782348,-0.001175951,-34.65364198,57.27917293,423166.1984,333.3023205,63.20310767,318.5938565,333.3236443,63.22359824,318.6026879,333.3235248,63.22144673,318.6007447
13:30:38,0.017568,0.034159999,0.016835999,-0.001013644,0.000172399,4.69E-05,-34.22699568,57.82334825,422984.7891,333.6321606,63.1565531,318.4167838,333.6526853,63.18017873,318.4321517,333.65288,63.17700269,318.4309428
13:30:48,0.018787999,0.034403998,0.016348001,-8.76E-05,-0.000441208,4.85E-05,-33.79793348,58.36116557,422803.4708,333.7273563,62.75867409,318.3413478,333.7251553,62.77759372,318.3441311,333.727107,62.77863191,318.3443838
13:30:58,0.019763999,0.033427998,0.018056,0.000235956,-0.001042791,0.000961462,-33.36487936,58.89477687,422621.6219,333.6100786,62.49039109,318.1581826,333.6015682,62.48514551,318.1544943,333.6024339,62.48067856,318.1575508
13:31:08,0.018056,0.031475998,0.018300001,0.001166325,-0.001031682,-0.002396828,-32.92684735,59.42548784,422438.8847,333.6590954,62.86601052,317.8251187,333.6472263,62.93365671,317.8046862,333.6472758,62.93527547,317.8049286
13:31:18,0.019032,0.033183999,0.015616,-0.001571134,-0.001027808,0.001266258,-32.49012914,59.94592233,422257.9201,333.2562936,62.89897301,317.4796033,333.26993,62.88887799,317.4895002,333.269177,62.88581124,317.4897632
13:31:28,0.018544,0.033183999,0.017324001,-0.001858775,-0.000716634,0.000954026,-32.04985395,60.46216407,422076.7409,333.5459243,63.09256106,317.4430789,333.5179632,63.06599846,317.4355588,333.5153251,63.06662683,317.4330829
13:31:38,0.020252001,0.032207999,0.019276001,-0.001236677,0.001732521,-0.001495736,-31.60467806,60.97588098,421894.8534,333.4037522,62.90217637,317.0806315,333.4333833,62.86594905,317.0899991,333.4318602,62.86652278,317.0902757
13:31:48,0.019276001,0.032451998,0.016592,-0.002130967,-8.80E-05,0.001857454,-31.15998766,61.48105652,421714.501,333.275763,62.64854412,316.8585444,333.2689397,62.66004616,316.8601461,333.2701554,62.66038084,316.8602178
13:31:58,0.018300001,0.033427998,0.019032,0.001250289,-7.07E-05,0.000935556,-30.71196614,61.98226036,421534.1726,333.3623613,62.94357415,316.6343469,333.3875288,62.94957105,316.6451318,333.3860996,62.94657943,316.644196
13:32:08,0.020008,0.033183999,0.016835999,4.95E-05,-4.94E-05,-0.000290984,-30.26246419,62.47759543,421354.6599,333.3017177,62.7694453,316.2594037,333.3196487,62.79460772,316.254684,333.3169217,62.79413644,316.2540146
13:32:18,0.018787999,0.033183999,0.01708,-0.000227895,-0.002458073,0.001224041,-29.80736616,62.97171029,421174.3782,333.5839599,62.5398963,316.2472323,333.5317192,62.48699649,316.2365191,333.5344394,62.4893734,316.236263
13:32:28,0.018787999,0.03294,0.017568,9.78E-05,-0.00274083,0.000297844,-29.35531499,63.45543622,420996.7891,333.4237698,62.8591735,316.0419202,333.4664124,62.85179006,316.0663074,333.4644709,62.85852463,316.0631074
13:32:38,0.019032,0.033671997,0.018056,-0.000184834,0.001851194,-1.72E-05,-28.89467762,63.94136343,420817.3767,333.5197544,62.85452214,316.3530968,333.4800591,62.9007352,316.3399897,333.4802777,62.89818071,316.3393476
13:32:48,0.018544,0.032451998,0.017811999,-0.002301957,-0.003932312,-0.000639135,-28.43662964,64.41782691,420640.5507,333.5952656,62.72460511,316.0852373,333.6010508,62.67361775,316.0798585,333.5999631,62.67311231,316.0794897
13:32:58,0.018787999,0.033183999,0.018787999,0.000158865,6.49E-05,-0.000337893,-27.97695228,64.88948685,420464.7046,333.6152934,62.97807343,315.887575,333.5939576,63.02912909,315.8737029,333.5926753,63.02850755,315.8707727
13:33:12,0.01952,0.033916,0.018056,-0.00043026,-0.002043024,-0.000649942,-27.32764381,65.54509095,420219.1153,333.3378272,63.22555851,315.3940631,333.3496759,63.25630802,315.3951218,333.3473571,63.25186156,315.3943226
13:33:22,0.019032,0.033183999,0.016104,0.000804599,0.000412762,-0.000960473,-26.86453603,66.00539912,420045.9931,333.1844263,62.79857606,315.3878237,333.1806424,62.80815198,315.3883121,333.1789656,62.80458663,315.3871714
13:33:32,0.018544,0.033916,0.01342,0.000812765,0.000410959,-0.000960741,-26.39288346,66.4682206,419871.4549,333.5043336,63.17726224,315.1799742,333.4747486,63.15020786,315.1780379,333.4729489,63.14352793,315.1781745
13:33:42,0.019032,0.033183999,0.016104,-0.002842892,0.000704825,0.001180867,-25.92393764,66.92262194,419699.7262,333.4299204,63.1453311,315.0382888,333.4136577,63.17071209,315.0356967,333.4111681,63.16886794,315.0363388
13:33:52,0.018787999,0.03294,0.018300001,0.001744706,0.002224371,-0.000645701,-25.45605059,67.37047802,419530.2102,333.4536143,63.29655832,314.7463802,333.4516711,63.300875,314.7475652,333.4548437,63.29912647,314.7502324
13:34:02,0.019276001,0.033671997,0.016104,-0.001306478,-0.000835247,0.000278156,-24.98444578,67.81651589,419361.2206,333.140095,63.08992461,314.8780765,333.2213076,63.16538454,314.9008722,333.2207305,63.16367699,314.9004078
13:34:12,0.018787999,0.031475998,0.01952,-0.001598854,0.000400461,-0.000944408,-24.50719464,68.26259792,419192.1517,333.1925952,62.97368162,314.6348568,333.1835811,62.91742818,314.6402015,333.1825292,62.91758528,314.6404781
13:34:22,0.018056,0.033427998,0.016348001,-0.000361081,0.00132031,-0.0009441,-24.03305842,68.70068432,419026.1518,333.1865795,63.30666017,314.3360839,333.1612156,63.31033481,314.3321668,333.1611285,63.31043727,314.3307905
13:34:32,0.018300001,0.033916,0.016348001,-0.003094617,0.001332052,-0.000945248,-23.55585193,69.13667652,418861.0844,332.9570169,63.42238407,314.1749392,332.9786788,63.45085229,314.1791261,332.9789725,63.45219101,314.180762
13:34:42,0.018300001,0.032451998,0.015616,-0.002158836,-0.001101173,0.00119457,-23.07754805,69.56888716,418697.6873,333.0784679,63.07607299,314.1262639,333.1185304,63.08814876,314.1502276,333.120757,63.08748623,314.1497153
13:34:52,0.018300001,0.03294,0.019763999,-0.001531124,0.000126116,-2.90E-05,-22.59320726,70.00184996,418534.3489,333.00922,62.87428871,314.3007615,333.0424472,62.96370954,314.3017246,333.0435263,62.96187905,314.3029404
13:35:02,0.019032,0.033183999,0.01708,0.000316218,0.001960449,-0.000336532,-22.11328683,70.42636354,418374.6356,333.1232227,63.06220087,314.1127503,333.1220052,63.06640827,314.1275958,333.12297,63.06486464,314.1267522
13:35:12,0.017324001,0.033671997,0.016348001,-0.001203224,-0.002933286,0.001190046,-21.62961268,70.84983331,418215.8518,332.9825464,62.77428108,313.6992336,333.01792,62.75211711,313.7170228,333.0168613,62.75452134,313.7146084
13:35:22,0.018056,0.033916,0.016592,-0.001798917,-0.000788935,0.000270156,-21.14856221,71.26681904,418060.1276,333.1874179,62.83770621,313.5316788,333.1908808,62.89652097,313.5267065,333.1906657,62.89641852,313.5270206
13:35:32,0.01952,0.033427998,0.018787999,0.000360176,0.001353353,0.000571506,-20.66291232,71.68371141,417905.167,333.2297327,62.43118018,313.673156,333.2393752,62.44777754,313.6792075,333.2399045,62.45299581,313.6802115
13:35:42,0.017324001,0.033183999,0.016592,-0.001452893,-0.001386806,-0.000348354,-20.17486106,72.09868739,417751.7491,333.3758543,62.53268363,313.5305826,333.3881589,62.58339778,313.5294761,333.3890537,62.5793748,313.5281169
13:35:52,0.017324001,0.033671997,0.016592,9.50E-05,0.001683787,0.000560932,-19.68707855,72.50959863,417600.7569,333.2032862,62.47409426,313.2467336,333.2446822,62.50489842,313.2736343,333.2467637,62.50427687,313.274471
13:36:02,0.017811999,0.034648001,0.013908,0.000423085,0.000487573,-0.000668945,-19.19785298,72.91801739,417451.6972,333.3797902,62.26305508,313.3599986,333.3732691,62.32723837,313.3504363,333.373112,62.32622067,313.3519663
13:36:12,0.018544,0.032451998,0.017568,-0.001081787,-0.001322642,-0.001283543,-18.7049575,73.32588598,417303.9575,333.2687365,62.9904429,313.264376,333.2385641,62.9106458,313.2625113,333.2387468,62.91261973,313.2595197
13:36:22,0.018544,0.032207999,0.01464,-0.000442579,-0.001292638,0.001152847,-18.21602669,73.72702614,417159.8516,333.1282531,62.76581847,312.9812817,333.1352438,62.75873557,312.9896145,333.1335704,62.76015625,312.9888632
13:36:32,0.019276001,0.03294,0.01708,-0.003796849,0.0005624,0.000240246,-17.72315538,74.12805706,417017.0767,333.1328037,62.64392009,313.0258419,333.1155609,62.73609349,313.011116,333.116384,62.73270572,313.0105593
13:36:42,0.018787999,0.033183999,0.017324001,-0.001040801,0.000575989,-0.000978403,-17.22547032,74.52973177,416875.4741,333.2595413,62.54079789,312.7761575,333.2553595,62.55663027,312.7681115,333.2521528,62.55287366,312.7693614
13:36:52,0.018544,0.031719998,0.016348001,-0.004079029,-0.000313953,0.000243964,-16.73498919,74.9225005,416738.4714,333.0932023,62.61071854,312.6925901,333.0726486,62.64326439,312.6840524,333.0709376,62.64289556,312.6845714
13:37:02,0.018300001,0.033916,0.017811999,0.000205692,0.00276269,-0.000366703,-16.23701451,75.31825464,416601.9919,333.0803035,62.54406272,312.7864096,333.1144869,62.61537673,312.8086077,333.1150213,62.61515133,312.8083106
13:37:12,0.01952,0.033671997,0.015128,-0.004357353,-0.00026837,-0.001281429,-15.74233872,75.70849963,416469.0526,333.2508072,62.88496429,312.6261665,333.2157427,62.8333827,312.6190016,333.216424,62.83144293,312.6192202
13:37:22,0.019276001,0.032696001,0.018544,-0.001278125,-0.001174264,0.001464795,-15.24002896,76.10194273,416336.7759,333.2772861,62.73384636,312.3862254,333.2981302,62.72312979,312.3977445,333.2953315,62.71488575,312.3967234
13:37:32,0.017811999,0.033427998,0.01708,-0.003692787,-0.001164265,-0.000983598,-14.74600612,76.48623409,416209.3742,333.0053217,62.93877252,312.2816244,333.0404288,62.87417942,312.3122578,333.0385847,62.87346908,312.3097921
13:37:42,0.018056,0.033183999,0.016592,0.000310618,0.000392862,0.001142325,-14.24336186,76.87463823,416082.5146,333.0211814,62.84640104,312.2953565,332.9866565,62.88850916,312.2794422,332.9856132,62.8880652,312.2747567
13:37:52,0.01708,0.033671997,0.016348001,-0.00180053,0.000429757,-8.63E-05,-13.74656812,77.2560612,415959.8963,333.1724479,62.69329552,312.449671,333.2390951,62.64033424,312.4786686,333.2377274,62.64094895,312.4764556
13:38:02,0.019032,0.034159999,0.018300001,-0.001471721,0.00046026,0.000823677,-13.24203854,77.6410303,415838.2056,332.8532407,62.75761541,311.97917,332.838689,62.78085172,311.9686276,332.8379342,62.77833821,311.9677124
13:38:12,0.018544,0.034403998,0.015128,-0.000835214,-0.001039848,-0.00193038,-12.74013377,78.02171116,415720.0077,333.1886013,62.88677429,312.2878365,333.2348553,62.84366214,312.316011,333.2335729,62.83859414,312.3170697
13:38:22,0.018787999,0.033671997,0.015859999,-0.001725327,-0.001617268,-0.001634775,-12.23992339,78.39894332,415605.0691,333.3828535,62.6386745,312.5800627,333.3795324,62.62056767,312.588259,333.3774714,62.62200884,312.5861382
13:38:32,0.019763999,0.033671997,0.017568,0.002586488,0.001474522,-0.000426058,-11.73663708,78.77641808,415492.3274,333.3122157,62.87984848,312.3200511,333.3277612,62.86995154,312.3270862,333.3284289,62.8702384,312.3250098
13:38:42,0.019276001,0.03294,0.016348001,0.000479452,-0.000621773,-0.000133993,-11.23646287,79.14959431,415383.1894,333.0488351,62.77049715,312.4204378,333.0598846,62.78142545,312.4286374,333.0617988,62.78004576,312.4312978
13:38:52,0.018544,0.033427998,0.016348001,-0.001929734,0.000334315,0.000162298,-10.72753612,79.52739133,415275.1365,333.1145671,62.72897643,312.2294862,333.134957,62.6820462,312.2465104,333.1336165,62.68208035,312.2451922
13:39:02,0.019032,0.033183999,0.016104,-0.005254606,-0.000545748,0.001061453,-10.22646584,79.89757154,415171.7228,333.2091704,62.69894409,312.2713587,333.2147489,62.70052186,312.2811395,333.2141735,62.69903288,312.2802003
13:39:12,0.017811999,0.03294,0.020008,-0.00247461,0.001333378,-0.000783851,-9.720056245,80.26999346,415070.2219,333.1294638,62.85014399,312.2355343,333.1384233,62.8908929,312.2525859,333.13738,62.88733437,312.2524493
13:39:22,0.019032,0.031719998,0.017324001,-0.003045686,-0.001366891,0.002558416,-9.217391456,80.63806204,414972.487,332.8540671,63.08088144,312.0966595,332.8850677,63.02726445,312.1084143,332.8822792,63.02535883,312.1070619
13:39:32,0.018300001,0.03294,0.018300001,-0.001788367,0.003252648,-0.000203762,-8.709232125,81.00862784,414876.7556,333.1926464,62.73652379,312.2855996,333.1829527,62.7822041,312.2740293,333.1812298,62.77803768,312.2748386
13:39:42,0.018056,0.031231999,0.017811999,-0.002678704,-0.002216578,0.001006916,-8.201260789,81.37761557,414784.1636,333.1265968,62.91526301,312.5941705,333.1197,62.95507618,312.5879789,333.1211941,62.94855335,312.5897445
13:39:52,0.019763999,0.03294,0.019276001,9.79E-05,-0.000354908,0.000996811,-7.693792282,81.74489069,414694.7787,333.023198,62.72937941,312.1406152,333.0455805,62.75454866,312.1470117,333.0441291,62.75149557,312.1483299
13:40:02,0.01952,0.032451998,0.016592,0.001042265,0.000293516,0.000678301,-7.1891194,82.1088958,414608.99,332.7081299,62.78642515,312.1321355,332.7294333,62.80634198,312.1602964,332.7299831,62.80590485,312.16031
13:40:12,0.018544,0.032451998,0.018056,-0.001370497,-0.004554376,0.003413737,-6.677910717,82.47643672,414525.2609,333.2609705,62.5462757,312.3258977,333.246955,62.58426521,312.3161545,333.2453567,62.58078865,312.313921
13:40:22,0.021228001,0.033183999,0.019032,-0.002248529,-0.000838451,0.000657899,-6.172380485,82.83881595,414445.6142,333.3248328,62.46211411,312.4587483,333.349302,62.42458222,312.481988,333.350808,62.42176818,312.481247
13:40:32,0.018787999,0.031719998,0.019032,-0.003128823,-0.001710214,3.54E-05,-5.664008148,83.20223683,414368.6942,333.5826639,62.61983001,312.6901859,333.5925813,62.59897744,312.6949636,333.5930202,62.59367721,312.6970673
13:40:42,0.017568,0.033183999,0.015859999,-0.001562387,-0.000749558,0.000937941,-5.15526193,83.56501109,414294.9172,333.1129501,62.7326579,312.554569,333.0975258,62.72609409,312.5362266,333.095656,62.72388794,312.5343483
13:40:52,0.017811999,0.034403998,0.015616,-0.0003139,0.000200361,0.002152611,-4.642777041,83.9296131,414223.8462,333.3794402,62.74480881,312.8852595,333.390447,62.70273484,312.8866665,333.3900645,62.70552839,312.8876398
13:41:02,0.019276001,0.033427998,0.014884,0.000931237,0.001448169,-0.001216384,-4.135801658,84.28955185,414156.7577,333.3616936,62.81925787,312.6673218,333.3924961,62.86276618,312.6990754,333.3917806,62.86085372,312.6984367
13:41:12,0.018300001,0.033427998,0.016592,-0.003022645,0.000261545,0.001526458,-3.626373101,84.65057097,414092.5793,333.2560613,62.87716422,312.5007232,333.2368309,62.9476586,312.5020176,333.2361513,62.94800694,312.5005252
13:41:22,0.020496,0.03294,0.01708,-0.002697118,0.000286646,0.001524622,-3.117150092,85.01086487,414031.6768,332.8666586,62.62080673,312.7259522,332.9153869,62.58800133,312.7564011,332.916116,62.58664895,312.7548541
13:41:32,0.017811999,0.033183999,0.018544,-0.001460034,-0.001836419,0.001218857,-2.605981434,85.37203569,413973.8179,333.2871233,62.88681527,313.2315569,333.2772913,62.90209441,313.2244808,333.2780528,62.8998541,313.2229509
13:41:42,0.019276001,0.032207999,0.017568,-0.003270224,-0.001816958,-0.001838153,-2.097362216,85.73099037,413919.5136,333.0304243,62.84542433,313.2205774,333.0524961,62.79280455,313.2249828,333.0540243,62.79381542,313.2230397
13:41:52,0.020008,0.035135999,0.019032,0.001628194,0.00032334,0.000298444,-1.587808656,86.09027126,413868.3831,333.105471,62.98889928,313.841141,333.1116216,62.94439377,313.8333854,333.1130969,62.94321898,313.8330268
13:42:02,0.019032,0.031231999,0.015859999,-0.002932806,0.000331029,-0.000319911,-1.075837836,86.45100276,413820.3162,333.1127452,63.02374691,313.7430664,333.1065622,63.01133645,313.7217152,333.1051654,63.01107007,313.7225382
13:42:12,0.017811999,0.03294,0.017568,0.001667988,-0.000255585,-0.000328077,-0.565985882,86.81007012,413775.7466,333.213026,62.75073058,313.839314,333.1982438,62.7903047,313.8384192,333.1983206,62.79103553,313.8411718
13:42:22,0.019276001,0.033183999,0.016592,-0.001364402,8.16E-05,-0.00063915,-0.056550828,87.16875441,413734.5056,332.9966337,62.84174969,314.0609673,332.9922026,62.87915863,314.0625826,332.994057,62.87838682,314.0639008
13:42:32,0.018056,0.033916,0.015128,0.00018239,-0.001722045,-0.001249002,0.453985394,87.52820553,413696.4802,333.1455796,62.53902887,314.0036859,333.1279611,62.55185597,313.9948544,333.1270903,62.54564049,313.993929
13:42:42,0.017568,0.032696001,0.017324001,0.000510097,-0.000477552,-0.000946654,0.964298589,87.88757242,413661.7803,333.0372152,62.84204338,314.774886,333.0032726,62.90815961,314.7720241,333.0062591,62.90473769,314.7714094
13:42:52,0.019032,0.033671997,0.019276001,-0.001912184,-0.000456452,-0.001249384,1.476970188,88.24875548,413630.253,333.1827956,62.58870484,315.0128019,333.1891016,62.6207999,315.0331183,333.1905735,62.62118922,315.0319948
13:43:06,0.018544,0.03294,0.015859999,0.001457866,0.000165969,-0.001249705,2.192469352,88.75324944,413591.8387,333.0974131,62.88358459,315.830157,333.0871371,62.85662584,315.8215441,333.0859606,62.8575001,315.8241294
13:43:16,0.018787999,0.033671997,0.017324001,0.001467552,-0.000745624,0.000277184,2.702921348,89.11357418,413568.4111,333.3932935,62.51173544,316.2441928,333.4381883,62.477926,316.2775856,333.438535,62.47413524,316.2782277
13:43:26,0.019032,0.032696001,0.017811999,-0.001578916,0.00170444,-2.95E-05,3.21061327,89.47238016,413548.3949,333.2888138,62.47608185,316.753783,333.2688406,62.49007007,316.7271453,333.2688065,62.48917532,316.7280161
13:43:36,0.018544,0.033427998,0.019032,-4.57E-05,0.000779659,0.001195006,3.722027561,89.83433259,413531.5419,333.1612156,62.70326077,316.9653515,333.172844,62.69479133,316.9765052,333.1745038,62.69379413,316.9747567
13:43:46,0.018056,0.034159999,0.015128,0.000564091,0.001072586,-0.001552124,4.229449731,90.19405342,413518.1008,333.0957448,62.85022595,317.3695758,333.0972577,62.82961927,317.3505605,333.0967079,62.83194153,317.3492901
13:43:56,0.01952,0.031231999,0.018787999,0.000267301,-0.001683086,-0.000636421,4.743490064,90.55915359,413507.8127,333.1508696,62.38097146,317.1343782,333.1400318,62.36388916,317.0984173,333.1414456,62.3643741,317.0996296
13:44:06,0.017324001,0.032696001,0.01708,0.002101649,0.00135088,0.001199637,5.248332911,90.91847784,413500.9645,333.3403988,62.57949774,318.0170265,333.3885107,62.58857506,318.0596435,333.388958,62.5878374,318.0563581
13:44:16,0.019276001,0.03294,0.016348001,-0.000956573,0.000421509,0.001515055,5.756551614,91.28104616,413497.3242,333.1377112,62.84422221,318.05379,333.1066936,62.81712002,318.00311,333.1080255,62.82327402,317.9997803
13:44:26,0.019032,0.033671997,0.016104,-0.000960644,0.002233617,-0.000307977,6.269765395,91.64812084,413496.9549,333.1662409,62.55900717,318.3420718,333.1244948,62.5395343,318.2783632,333.1257994,62.54022415,318.2759385
13:44:36,0.020252001,0.034892,0.017568,0.002703879,-0.000210576,-0.001217846,6.776893268,92.01185942,413499.847,333.2322103,62.44282566,318.5393413,333.253903,62.51082019,318.6095761,333.2547329,62.5155057,318.6078686
13:44:46,0.018544,0.032696001,0.017568,-0.000962183,-0.000817962,1.02E-05,7.282282389,92.3754425,413505.9425,333.227518,62.31271738,319.1866554,333.2046864,62.37388173,319.1988678,333.2039214,62.37274792,319.198113
13:44:56,0.016835999,0.031475998,0.016835999,-0.003086928,-0.001716711,0.00245258,7.791428434,92.74291803,413515.3186,333.1192748,62.65279933,319.9616497,333.103171,62.62879122,319.9154263,333.102447,62.62773254,319.913893
13:45:06,0.020008,0.031475998,0.016104,-0.001855843,-0.001696974,0.000927249,8.301033248,93.11200989,413527.9453,333.0919012,62.58940835,320.2651457,333.0787991,62.60099235,320.254815,333.0794224,62.59745431,320.2530563
13:45:16,0.019763999,0.034159999,0.01708,-0.000318006,0.001059689,0.000620376,8.807587149,93.48025644,413543.701,333.3225583,62.3867498,320.9619274,333.3494164,62.29203557,320.9058482,333.3489622,62.29405048,320.907986
13:45:26,0.01708,0.034648001,0.017568,0.000905946,-0.000467241,-0.00090247,9.312835355,93.84899946,413562.5878,333.2234574,62.52461034,321.301784,333.2643583,62.60273405,321.3978608,333.2658917,62.60338291,321.4003402
13:45:36,0.018544,0.033427998,0.01708,5.89E-06,-0.001057945,-0.002129594,9.818214958,94.21937451,413584.6369,333.1437389,62.56574857,322.2304199,333.1080067,62.5946471,322.2037105,333.1075662,62.5944422,322.2010569
13:45:46,0.019763999,0.033183999,0.01708,-0.001503475,0.000172436,0.000617065,10.32159502,94.58990399,413609.7257,332.8931153,62.76705474,322.2907817,332.8606105,62.81488655,322.2749015,332.8599496,62.81117093,322.2755914
13:45:56,0.018787999,0.031719998,0.01708,-0.000569168,0.00109943,0.001531957,10.83039094,94.96615861,413638.2426,333.1238613,62.83430478,323.3493586,333.1146713,62.81295361,323.293976,333.1134675,62.80968878,323.2966125
13:46:06,0.018300001,0.033916,0.016348001,6.25E-05,-0.000405744,-0.000305049,11.33059944,95.33786212,413669.3597,333.1112562,62.78609047,324.6501408,333.1315555,62.74809413,324.6134593,333.1314975,62.7426573,324.6143813
13:46:16,0.019032,0.032207999,0.017324001,7.94E-05,0.000228293,-0.001529198,11.83779655,95.71667907,413704.0167,332.8533329,62.48535724,323.9788322,332.8585614,62.43742298,323.9276092,332.8588824,62.44145962,323.9300476
13:46:26,0.018544,0.032451998,0.018300001,-0.003572503,-0.002507135,-0.001224915,12.33775077,96.09207745,413741.2238,332.9623461,62.51510272,324.8778183,333.0036961,62.49398377,324.9130963,333.003498,62.49285679,324.912666
13:46:36,0.018300001,0.031475998,0.015128,0.000405174,-0.001884371,0.001830811,12.84185057,96.4726915,413781.7845,333.2739189,62.65997786,325.783819,333.2709409,62.66307194,325.8155487,333.2707667,62.66579718,325.8169147
13:46:46,0.01952,0.03294,0.015128,-0.002646476,0.000262141,1.55E-06,13.34206565,96.8525623,413825.0388,332.9381365,62.66384375,326.6550131,332.9513683,62.62153756,326.6347035,332.9524611,62.62547858,326.6329106
13:46:56,0.018300001,0.033183999,0.020252001,-0.00049692,0.000279665,0.000611572,13.84607437,97.23762634,413871.6326,333.0166734,62.60650431,327.5644391,333.02363,62.66594745,327.6463023,333.023005,62.66262114,327.6484333
13:47:06,0.019763999,0.032696001,0.017324001,-0.001689434,-0.001231313,0.00060094,14.34480678,97.62105083,413920.6967,332.7441626,62.77090696,328.8745377,332.7240357,62.78690327,328.8644392,332.7251917,62.78520938,328.864832
13:47:16,0.020008,0.033427998,0.015859999,-0.000740081,0.00092525,-0.000640014,14.84288629,98.00645628,413972.6152,332.7329559,62.56696434,329.6644422,332.6848919,62.55603604,329.6104632,332.6870605,62.55739525,329.6108526
13:47:26,0.019276001,0.031964,0.015128,-0.002550256,-0.000278763,0.000877587,15.33978032,98.3935272,414027.298,332.7916938,62.55585846,330.5352367,332.8317819,62.51356593,330.5436788,332.8333768,62.51468608,330.5427943
13:47:36,0.018787999,0.031964,0.016835999,-0.003753489,-0.001184121,0.00056429,15.84181713,98.78733927,414085.4565,332.9896242,62.75132481,331.8273002,332.9642637,62.85131878,331.930337,332.9631931,62.84829984,331.9310183
13:47:46,0.01708,0.032451998,0.01708,0.002070416,0.000667229,-0.000969278,16.33422525,99.17638387,414145.3213,333.0357689,62.67163699,332.8458265,333.0026203,62.64932277,332.762126,333.002704,62.64798405,332.7610809
13:47:56,0.018544,0.031475998,0.015859999,-4.45E-05,0.000376798,-0.000671934,16.83423318,99.57437578,414208.9489,333.1984794,63.02518125,334.5626099,333.2273216,63.01139109,334.5636942,333.2246749,63.01018215,334.5630419
13:48:06,0.020008,0.032207999,0.018056,-0.001557499,-0.001446962,-0.000980716,17.32712135,99.96972394,414274.4497,332.9661727,62.88678795,336.1326911,332.9281901,62.84595025,336.0154065,332.9279322,62.85054014,336.0146176
13:48:16,0.016835999,0.031231999,0.014396,0.000286665,0.000390254,-0.000983465,17.81877711,100.3671972,414342.5146,333.0262169,62.6945113,336.5461839,333.0032692,62.62198835,336.3579183,333.0055505,62.62082722,336.3594722
